RECEIVED: $GPGLL,3250.56354,N,09646.92286,W,174610.00,A,A*71
RECEIVED: $GPGLL,3250.56353,N,09646.92289,W,174611.00,A,A*78
RECEIVED: $GPGLL,3250.56344,N,09646.92308,W,174612.00,A,A*75
RECEIVED: $GPGLL,3250.56341,N,09646.92315,W,174613.00,A,A*7D
RECEIVED: $GPGLL,3250.56343,N,09646.92312,W,174614.00,A,A*7F
RECEIVED: $GPGLL,3250.56346,N,09646.92308,W,174616.00,A,A*73
RECEIVED: $GPGLL,3250.56335,N,09646.92338,W,174617.00,A,A*75
RECEIVED: $GPGLL,3250.56328,N,09646.92361,W,174618.00,A,A*7A
RECEIVED: $GPGLL,3250.56318,N,09646.92358,W,174619.00,A,A*72
RECEIVED: $GPGLL,3250.56309,N,09646.92350,W,174620.00,A,A*70
RECEIVED: $GPGLL,3250.56298,N,09646.92330,W,174621.00,A,A*7E
RECEIVED: $GPGLL,3250.56288,N,09646.92269,W,174622.00,A,A*71
RECEIVED: $GPGLL,3250.56288,N,09646.92251,W,174623.00,A,A*7B
RECEIVED: $GPGLL,3250.56284,N,09646.92229,W,174624.00,A,A*7F
RECEIVED: $GPGLL,3250.56272,N,09646.92210,W,174625.00,A,A*7D
RECEIVED: $GPGLL,3250.56279,N,09646.92174,W,174626.00,A,A*74
RECEIVED: $GPGLL,3250.56281,N,09646.92163,W,174627.00,A,A*74
RECEIVED: $GPGLL,3250.56300,N,09646.92198,W,174628.00,A,A*77
RECEIVED: $GPGLL,3250.56289,N,09646.92199,W,174629.00,A,A*77
RECEIVED: $GPGLL,3250.56271,N,09646.92152,W,174630.00,A,A*7F
RECEIVED: $GPGLL,3250.56270,N,09646.92128,W,174631.00,A,A*72
RECEIVED: $GPGLL,3250.56238,N,09646.92107,W,174632.00,A,A*70
RECEIVED: $GPGLL,3250.56198,N,09646.92209,W,174633.00,A,A*75
RECEIVED: $GPGLL,3250.56139,N,09646.92285,W,174634.00,A,A*7D
RECEIVED: $GPGLL,3250.56092,N,09646.92401,W,174635.00,A,A*76
RECEIVED: $GPGLL,3250.55898,N,09646.92311,W,174637.00,A,A*73
RECEIVED: $GPGLL,3250.55824,N,09646.92450,W,174638.00,A,A*79
RECEIVED: $GPGLL,3250.55773,N,09646.92639,W,174639.00,A,A*78
RECEIVED: $GPGLL,3250.55698,N,09646.92654,W,174640.00,A,A*79
RECEIVED: $GPGLL,3250.55635,N,09646.92773,W,174641.00,A,A*7B
RECEIVED: $GPGLL,3250.55530,N,09646.92826,W,174642.00,A,A*71
RECEIVED: $GPGLL,3250.55446,N,09646.92886,W,174643.00,A,A*7A
RECEIVED: $GPGLL,3250.55325,N,09646.92878,W,174644.00,A,A*7E
RECEIVED: $GPGLL,3250.55164,N,09646.92733,W,174645.00,A,A*78
RECEIVED: $GPGLL,3250.55060,N,09646.92561,W,174646.00,A,A*7B
RECEIVED: $GPGLL,3250.55036,N,09646.92510,W,174647.00,A,A*7F
RECEIVED: $GPGLL,3250.55213,N,09646.92542,W,174648.00,A,A*72
RECEIVED: $GPGLL,3250.55278,N,09646.92422,W,174649.00,A,A*79
RECEIVED: $GPGLL,3250.55200,N,09646.92497,W,174650.00,A,A*70
497,W,174650.00,A,A*7074651.00,V,N*4A
RECEIVED: $GPGLL,3250.55066,N,09646.92296,W,174652.00,A,A*77
296,W,174652.00,A,A*7774653.00,V,N*48
296,W,174652.00,A,A*7774654.00,V,N*4F
296,W,174652.00,A,A*7774655.00,V,N*4E
296,W,174652.00,A,A*7774656.00,V,N*4D
296,W,174652.00,A,A*7774657.00,V,N*4C
296,W,174652.00,A,A*7774658.00,V,N*43
296,W,174652.00,A,A*7774659.00,V,N*42
296,W,174652.00,A,A*7774700.00,V,N*4F
296,W,174652.00,A,A*7774701.00,V,N*4E
296,W,174652.00,A,A*7774702.00,V,N*4D
296,W,174652.00,A,A*7774703.00,V,N*4C
296,W,174652.00,A,A*7774704.00,V,N*4B
296,W,174652.00,A,A*7774706.00,V,N*49
296,W,174652.00,A,A*7774707.00,V,N*48
296,W,174652.00,A,A*7774708.00,V,N*47
296,W,174652.00,A,A*7774709.00,V,N*46
296,W,174652.00,A,A*7774710.00,V,N*4E
296,W,174652.00,A,A*7774711.00,V,N*4F
296,W,174652.00,A,A*7774712.00,V,N*4C
296,W,174652.00,A,A*7774713.00,V,N*4D
296,W,174652.00,A,A*7774714.00,V,N*4A
296,W,174652.00,A,A*7774715.00,V,N*4B
296,W,174652.00,A,A*7774717.00,V,N*49
296,W,174652.00,A,A*7774718.00,V,N*46
296,W,174652.00,A,A*7774719.00,V,N*47
296,W,174652.00,A,A*7774720.00,V,N*4D
296,W,174652.00,A,A*7774722.00,V,N*4F
RECEIVED: $GPGLL,3250.55835,N,09646.91175,W,174723.00,A,A*73
RECEIVED: $GPGLL,3250.55597,N,09646.90979,W,174724.00,A,A*74
RECEIVED: $GPGLL,3250.55615,N,09646.91196,W,174736.00,A,A*76
RECEIVED: $GPGLL,3250.55604,N,09646.91179,W,174737.00,A,A*76
RECEIVED: $GPGLL,3250.55599,N,09646.91163,W,174738.00,A,A*75
RECEIVED: $GPGLL,3250.55611,N,09646.91159,W,174741.00,A,A*71
RECEIVED: $GPGLL,3250.55682,N,09646.91277,W,174745.00,A,A*70
RECEIVED: $GPGLL,3250.55717,N,09646.91341,W,174749.00,A,A*75
RECEIVED: $GPGLL,3250.55725,N,09646.91371,W,174750.00,A,A*7F
RECEIVED: $GPGLL,3250.55722,N,09646.91349,W,174751.00,A,A*72
RECEIVED: $GPGLL,3250.55726,N,09646.91350,W,174752.00,A,A*7D
RECEIVED: $GPGLL,3250.55658,N,09646.91346,W,174755.00,A,A*75
