$GPGSV,3,2,12,07,15,154,09,11,19,046,25,13,22,257,,15,08,293,17*7C

$GPGSV,3,3,12,17,69,295,26,20,02,158,,28,62,033,17,30,45,161,27*7C

$GPGLL,3250.45066,N,09646.24944,W,054419.00,A,A*71

$GPRMC,054420.00,A,3250.45086,N,09646.24980,W,0.542,,100215,,,A*60

$GPVTG,,T,,M,0.542,N,1.003,K,A*22

$GPGGA,054420.00,3250.45086,N,09646.24980,W,1,06,2.34,199.7,M,-25.2,M,,*65

$GPGSA,A,3,11,01,30,17,28,07,,,,,,,3.71,2.34,2.89*08

$GPGSV,3,1,12,01,36,054,20,03,07,101,,04,10,039,,06,25,190,18*74

$GPGSV,3,2,12,07,15,154,09,11,19,046,25,13,22,257,,15,08,293,17*7C

$GPGSV,3,3,12,17,69,295,26,20,02,158,,28,62,033,17,30,45,161,27*7C

$GPGLL,3250.45086,N,09646.24980,W,054420.00,A,A*7D

$GPRMC,054421.00,A,3250.45099,N,09646.24984,W,0.430,,100215,,,A*6F

$GPVTG,,T,,M,0.430,N,0.796,K,A*2C

$GPGGA,054421.00,3250.45099,N,09646.24984,W,1,06,2.34,200.0,M,-25.2,M,,*6A

$GPGSA,A,3,11,01,30,17,28,07,,,,,,,3.71,2.34,2.88*09

$GPGSV,3,1,12,01,36,054,20,03,07,101,,04,10,039,,06,25,190,19*75

$GPGSV,3,2,12,07,15,154,09,11,19,046,25,13,22,257,,15,08,293,17*7C

$GPGSV,3,3,12,17,69,295,26,20,02,158,,28,62,033,17,30,45,161,27*7C

$GPGLL,3250.45099,N,09646.24984,W,054421.00,A,A*76

$GPRMC,054422.00,A,3250.45104,N,09646.24984,W,0.357,,100215,,,A*6F

$GPVTG,,T,,M,0.357,N,0.661,K,A*23

$GPGGA,054422.00,3250.45104,N,09646.24984,W,1,06,2.34,200.2,M,-25.2,M,,*6E

$GPGSA,A,3,11,01,30,17,28,07,,,,,,,3.71,2.34,2.88*09

$GPGSV,3,1,12,01,36,054,20,03,07,101,,04,10,039,,06,25,190,20*7F

$GPGSV,3,2,12,07,15,154,09,11,19,046,25,13,22,257,,15,08,293,17*7C

$GPGSV,3,3,12,17,69,295,26,20,02,158,,28,62,033,16,30,45,161,27*7D

$GPGLL,3250.45104,N,09646.24984,W,054422.00,A,A*70

$GPRMC,054423.00,A,3250.45106,N,09646.24989,W,0.328,,100215,,,A*69

$GPVTG,,T,,M,0.328,N,0.608,K,A*24

$GPGGA,054423.00,3250.45106,N,09646.24989,W,1,06,2.34,200.3,M,-25.2,M,,*61

$GPGSA,A,3,11,01,30,17,28,07,,,,,,,3.71,2.34,2.88*09

$GPGSV,3,1,12,01,36,054,21,03,07,101,,04,10,039,,06,25,190,19*74

$GPGSV,3,2,12,07,15,154,09,11,19,046,25,13,22,257,,15,08,293,15*7E

$GPGSV,3,3,12,17,69,295,26,20,02,158,,28,62,033,16,30,45,161,27*7D

$GPGLL,3250.45106,N,09646.24989,W,054423.00,A,A*7E

$GPRMC,054424.00,A,3250.45106,N,09646.24987,W,0.302,,100215,,,A*68

$GPVTG,,T,,M,0.302,N,0.559,K,A*2B

$GPGGA,054424.00,3250.45106,N,09646.24987,W,1,06,2.34,200.5,M,-25.2,M,,*6E

$GPGSA,A,3,11,01,30,17,28,07,,,,,,,3.71,2.34,2.88*09

$GPGSV,3,1,12,01,36,054,20,03,07,101,,04,10,039,,06,25,190,19*75

$GPGSV,3,2,12,07,15,154,09,11,19,046,25,13,22,257,,15,08,293,15*7E

$GPGSV,3,3,12,17,69,295,26,20,02,158,,28,62,033,15,30,45,161,26*7F

$GPGLL,3250.45106,N,09646.24987,W,054424.00,A,A*77

$GPRMC,054425.00,A,3250.45116,N,09646.24980,W,0.207,,100215,,,A*6B

$GPVTG,,T,,M,0.207,N,0.384,K,A*29

$GPGGA,054425.00,3250.45116,N,09646.24980,W,1,06,2.34,200.7,M,-25.2,M,,*6B

$GPGSA,A,3,11,01,30,17,28,07,,,,,,,3.71,2.34,2.88*09

$GPGSV,3,1,12,01,36,054,20,03,07,101,,04,10,039,,06,25,190,19*75

$GPGSV,3,2,12,07,15,154,09,11,19,046,25,13,22,257,,15,08,293,16*7D

$GPGSV,3,3,12,17,69,295,26,20,02,158,,28,62,033,15,30,45,161,27*7E

$GPGLL,3250.45116,N,09646.24980,W,054425.00,A,A*70

$GPRMC,054426.00,A,3250.45125,N,09646.24958,W,0.199,,100215,,,A*69

$GPVTG,,T,,M,0.199,N,0.368,K,A*2F

$GPGGA,054426.00,3250.45125,N,09646.24958,W,1,06,2.34,201.0,M,-25.2,M,,*6B

$GPGSA,A,3,11,01,30,17,28,07,,,,,,,3.71,2.34,2.88*09

$GPGSV,3,1,12,01,36,054,21,03,07,101,,04,10,039,,06,25,190,19*74

$GPGSV,3,2,12,07,15,154,09,11,19,046,25,13,22,257,,15,08,293,17*7C

$GPGSV,3,3,12,17,69,295,26,20,02,158,,28,62,033,11,30,45,161,27*7A

$GPGLL,3250.45125,N,09646.24958,W,054426.00,A,A*76

$GPRMC,054427.00,A,3250.45132,N,09646.24964,W,0.247,,100215,,,A*61

$GPVTG,,T,,M,0.247,N,0.458,K,A*2B

$GPGGA,054427.00,3250.45132,N,09646.24964,W,1,06,2.34,201.2,M,-25.2,M,,*61

$GPGSA,A,3,11,01,30,17,28,07,,,,,,,3.71,2.34,2.88*09

$GPGSV,3,1,12,01,36,054,22,03,07,101,,04,10,039,,06,25,190,19*77

$GPGSV,3,2,12,07,15,154,09,11,19,046,25,13,22,257,,15,08,293,17*7C

$GPGSV,3,3,12,17,69,295,27,20,02,158,,28,62,033,11,30,45,161,27*7B

$GPGLL,3250.45132,N,09646.24964,W,054427.00,A,A*7E

$GPRMC,054428.00,A,3250.45145,N,09646.24954,W,0.268,,100215,,,A*60

$GPVTG,,T,,M,0.268,N,0.496,K,A*24

$GPGGA,054428.00,3250.45145,N,09646.24954,W,1,06,2.34,201.4,M,-25.2,M,,*6B

$GPGSA,A,3,11,01,30,17,28,07,,,,,,,3.71,2.34,2.88*09

$GPGSV,3,1,12,01,36,054,23,03,07,101,,04,10,039,,06,25,190,19*76

$GPGSV,3,2,12,07,15,154,14,11,19,046,26,13,22,257,,15,08,293,17*73

$GPGSV,3,3,12,17,69,295,27,20,02,158,,28,62,033,13,30,45,161,27*79

$GPGLL,3250.45145,N,09646.24954,W,054428.00,A,A*72

$GPRMC,054429.00,A,3250.45158,N,09646.24960,W,0.299,,100215,,,A*64

$GPVTG,,T,,M,0.299,N,0.555,K,A*24

$GPGGA,054429.00,3250.45158,N,09646.24960,W,1,06,2.34,201.8,M,-25.2,M,,*6D

$GPGSA,A,3,11,01,30,17,28,07,,,,,,,3.71,2.34,2.88*09

$GPGSV,3,1,12,01,36,054,23,03,07,101,,04,10,039,,06,25,190,19*76

$GPGSV,3,2,12,07,15,154,14,11,19,046,26,13,22,257,,15,08,293,17*73

$GPGSV,3,3,12,17,69,295,26,20,02,158,,28,62,033,15,30,45,161,27*7E

$GPGLL,3250.45158,N,09646.24960,W,054429.00,A,A*78

$GPRMC,054430.00,A,3250.45173,N,09646.24971,W,0.354,,100215,,,A*65

$GPVTG,,T,,M,0.354,N,0.655,K,A*27

$GPGGA,054430.00,3250.45173,N,09646.24971,W,1,06,2.34,202.3,M,-25.2,M,,*64

$GPGSA,A,3,11,01,30,17,28,07,,,,,,,3.71,2.34,2.88*09

$GPGSV,3,1,12,01,36,054,23,03,07,101,,04,10,039,,06,25,190,20*7C

$GPGSV,3,2,12,07,15,154,14,11,19,046,26,13,22,257,,15,08,293,17*73

$GPGSV,3,3,12,17,69,295,26,20,02,158,,28,62,033,15,30,45,161,27*7E

$GPGLL,3250.45173,N,09646.24971,W,054430.00,A,A*79

$GPRMC,054431.00,A,3250.45189,N,09646.24969,W,0.430,,100215,,,A*6D

$GPVTG,,T,,M,0.430,N,0.796,K,A*2C

$GPGGA,054431.00,3250.45189,N,09646.24969,W,1,06,2.34,203.0,M,-25.2,M,,*6B

$GPGSA,A,3,11,01,30,17,28,07,,,,,,,3.71,2.34,2.88*09

$GPGSV,3,1,12,01,36,054,23,03,07,101,,04,10,039,18,06,25,190,20*75

$GPGSV,3,2,12,07,15,154,14,11,19,046,25,13,22,257,,15,08,293,17*70

$GPGSV,3,3,12,17,69,295,26,20,02,158,,28,62,033,15,30,45,161,27*7E

$GPGLL,3250.45189,N,09646.24969,W,054431.00,A,A*74

$GPRMC,054432.00,A,3250.45197,N,09646.24963,W,0.433,,100215,,,A*68

$GPVTG,,T,,M,0.433,N,0.802,K,A*2D

$GPGGA,054432.00,3250.45197,N,09646.24963,W,1,06,2.34,203.6,M,-25.2,M,,*6B

$GPGSA,A,3,11,01,30,17,28,07,,,,,,,3.71,2.34,2.88*09

$GPGSV,3,1,12,01,36,054,23,03,07,101,,04,10,039,15,06,25,190,20*78

$GPGSV,3,2,12,07,15,154,14,11,19,046,25,13,22,257,,15,08,293,17*70

$GPGSV,3,3,12,17,69,295,26,20,02,158,,28,62,033,13,30,45,161,26*79

$GPGLL,3250.45197,N,09646.24963,W,054432.00,A,A*72

$GPRMC,054433.00,A,3250.45192,N,09646.24962,W,0.238,,100215,,,A*60

$GPVTG,,T,,M,0.238,N,0.442,K,A*28

$GPGGA,054433.00,3250.45192,N,09646.24962,W,1,06,2.34,203.9,M,-25.2,M,,*61

$GPGSA,A,3,11,01,30,17,28,07,,,,,,,3.71,2.34,2.88*09

$GPGSV,3,1,12,01,36,054,23,03,07,101,,04,10,039,14,06,25,190,20*79

$GPGSV,3,2,12,07,15,154,14,11,19,046,25,13,22,257,,15,08,293,17*70

$GPGSV,3,3,12,17,69,295,26,20,02,158,,28,62,033,14,30,45,161,27*7F

$GPGLL,3250.45192,N,09646.24962,W,054433.00,A,A*77

$GPRMC,054434.00,A,3250.45189,N,09646.24945,W,0.063,,100215,,,A*64

$GPVTG,,T,,M,0.063,N,0.117,K,A*21

$GPGGA,054434.00,3250.45189,N,09646.24945,W,1,06,2.34,204.4,M,-25.2,M,,*63

$GPGSA,A,3,11,01,30,17,28,07,,,,,,,3.71,2.34,2.88*09

$GPGSV,3,1,12,01,36,054,23,03,07,101,,04,10,039,06,06,25,190,20*7A

$GPGSV,3,2,12,07,15,154,12,11,19,046,25,13,22,257,,15,08,293,17*76

$GPGSV,3,3,12,17,69,295,26,20,02,158,,28,62,033,14,30,45,161,26*7E

$GPGLL,3250.45189,N,09646.24945,W,054434.00,A,A*7F

$GPRMC,054435.00,A,3250.45179,N,09646.24944,W,0.118,,100215,,,A*66

$GPGSV,3,2,12,07,15,154,09,11,19,046,25,13,22,257,,15,08,293,17*7C

$GPGSV,3,3,12,17,69,295,26,20,02,158,,28,62,033,17,30,45,161,27*7C

$GPGLL,3250.45066,N,09646.24944,W,054419.00,A,A*71

$GPRMC,054420.00,A,3250.45086,N,09646.24980,W,0.542,,100215,,,A*60

$GPVTG,,T,,M,0.542,N,1.003,K,A*22

$GPGGA,054420.00,3250.45086,N,09646.24980,W,1,06,2.34,199.7,M,-25.2,M,,*65

$GPGSA,A,3,11,01,30,17,28,07,,,,,,,3.71,2.34,2.89*08

$GPGSV,3,1,12,01,36,054,20,03,07,101,,04,10,039,,06,25,190,18*74

$GPGSV,3,2,12,07,15,154,09,11,19,046,25,13,22,257,,15,08,293,17*7C

$GPGSV,3,3,12,17,69,295,26,20,02,158,,28,62,033,17,30,45,161,27*7C

$GPGLL,3250.45086,N,09646.24980,W,054420.00,A,A*7D

$GPRMC,054421.00,A,3250.45099,N,09646.24984,W,0.430,,100215,,,A*6F

$GPVTG,,T,,M,0.430,N,0.796,K,A*2C

$GPGGA,054421.00,3250.45099,N,09646.24984,W,1,06,2.34,200.0,M,-25.2,M,,*6A

$GPGSA,A,3,11,01,30,17,28,07,,,,,,,3.71,2.34,2.88*09

$GPGSV,3,1,12,01,36,054,20,03,07,101,,04,10,039,,06,25,190,19*75

$GPGSV,3,2,12,07,15,154,09,11,19,046,25,13,22,257,,15,08,293,17*7C

$GPGSV,3,3,12,17,69,295,26,20,02,158,,28,62,033,17,30,45,161,27*7C

$GPGLL,3250.45099,N,09646.24984,W,054421.00,A,A*76

$GPRMC,054422.00,A,3250.45104,N,09646.24984,W,0.357,,100215,,,A*6F

$GPVTG,,T,,M,0.357,N,0.661,K,A*23

$GPGGA,054422.00,3250.45104,N,09646.24984,W,1,06,2.34,200.2,M,-25.2,M,,*6E

$GPGSA,A,3,11,01,30,17,28,07,,,,,,,3.71,2.34,2.88*09

$GPGSV,3,1,12,01,36,054,20,03,07,101,,04,10,039,,06,25,190,20*7F

$GPGSV,3,2,12,07,15,154,09,11,19,046,25,13,22,257,,15,08,293,17*7C

$GPGSV,3,3,12,17,69,295,26,20,02,158,,28,62,033,16,30,45,161,27*7D

$GPGLL,3250.45104,N,09646.24984,W,054422.00,A,A*70

$GPRMC,054423.00,A,3250.45106,N,09646.24989,W,0.328,,100215,,,A*69

$GPVTG,,T,,M,0.328,N,0.608,K,A*24

$GPGGA,054423.00,3250.45106,N,09646.24989,W,1,06,2.34,200.3,M,-25.2,M,,*61

$GPGSA,A,3,11,01,30,17,28,07,,,,,,,3.71,2.34,2.88*09

$GPGSV,3,1,12,01,36,054,21,03,07,101,,04,10,039,,06,25,190,19*74

$GPGSV,3,2,12,07,15,154,09,11,19,046,25,13,22,257,,15,08,293,15*7E

$GPGSV,3,3,12,17,69,295,26,20,02,158,,28,62,033,16,30,45,161,27*7D

$GPGLL,3250.45106,N,09646.24989,W,054423.00,A,A*7E

$GPRMC,054424.00,A,3250.45106,N,09646.24987,W,0.302,,100215,,,A*68

$GPVTG,,T,,M,0.302,N,0.559,K,A*2B

$GPGGA,054424.00,3250.45106,N,09646.24987,W,1,06,2.34,200.5,M,-25.2,M,,*6E

$GPGSA,A,3,11,01,30,17,28,07,,,,,,,3.71,2.34,2.88*09

$GPGSV,3,1,12,01,36,054,20,03,07,101,,04,10,039,,06,25,190,19*75

$GPGSV,3,2,12,07,15,154,09,11,19,046,25,13,22,257,,15,08,293,15*7E

$GPGSV,3,3,12,17,69,295,26,20,02,158,,28,62,033,15,30,45,161,26*7F

$GPGLL,3250.45106,N,09646.24987,W,054424.00,A,A*77

$GPRMC,054425.00,A,3250.45116,N,09646.24980,W,0.207,,100215,,,A*6B

$GPVTG,,T,,M,0.207,N,0.384,K,A*29

$GPGGA,054425.00,3250.45116,N,09646.24980,W,1,06,2.34,200.7,M,-25.2,M,,*6B

$GPGSA,A,3,11,01,30,17,28,07,,,,,,,3.71,2.34,2.88*09

$GPGSV,3,1,12,01,36,054,20,03,07,101,,04,10,039,,06,25,190,19*75

$GPGSV,3,2,12,07,15,154,09,11,19,046,25,13,22,257,,15,08,293,16*7D

$GPGSV,3,3,12,17,69,295,26,20,02,158,,28,62,033,15,30,45,161,27*7E

$GPGLL,3250.45116,N,09646.24980,W,054425.00,A,A*70

$GPRMC,054426.00,A,3250.45125,N,09646.24958,W,0.199,,100215,,,A*69

$GPVTG,,T,,M,0.199,N,0.368,K,A*2F

$GPGGA,054426.00,3250.45125,N,09646.24958,W,1,06,2.34,201.0,M,-25.2,M,,*6B

$GPGSA,A,3,11,01,30,17,28,07,,,,,,,3.71,2.34,2.88*09

$GPGSV,3,1,12,01,36,054,21,03,07,101,,04,10,039,,06,25,190,19*74

$GPGSV,3,2,12,07,15,154,09,11,19,046,25,13,22,257,,15,08,293,17*7C

$GPGSV,3,3,12,17,69,295,26,20,02,158,,28,62,033,11,30,45,161,27*7A

$GPGLL,3250.45125,N,09646.24958,W,054426.00,A,A*76

$GPRMC,054427.00,A,3250.45132,N,09646.24964,W,0.247,,100215,,,A*61

$GPVTG,,T,,M,0.247,N,0.458,K,A*2B

$GPGGA,054427.00,3250.45132,N,09646.24964,W,1,06,2.34,201.2,M,-25.2,M,,*61

$GPGSA,A,3,11,01,30,17,28,07,,,,,,,3.71,2.34,2.88*09

$GPGSV,3,1,12,01,36,054,22,03,07,101,,04,10,039,,06,25,190,19*77

$GPGSV,3,2,12,07,15,154,09,11,19,046,25,13,22,257,,15,08,293,17*7C

$GPGSV,3,3,12,17,69,295,27,20,02,158,,28,62,033,11,30,45,161,27*7B

$GPGLL,3250.45132,N,09646.24964,W,054427.00,A,A*7E

$GPRMC,054428.00,A,3250.45145,N,09646.24954,W,0.268,,100215,,,A*60

$GPVTG,,T,,M,0.268,N,0.496,K,A*24

$GPGGA,054428.00,3250.45145,N,09646.24954,W,1,06,2.34,201.4,M,-25.2,M,,*6B

$GPGSA,A,3,11,01,30,17,28,07,,,,,,,3.71,2.34,2.88*09

$GPGSV,3,1,12,01,36,054,23,03,07,101,,04,10,039,,06,25,190,19*76

$GPGSV,3,2,12,07,15,154,14,11,19,046,26,13,22,257,,15,08,293,17*73

$GPGSV,3,3,12,17,69,295,27,20,02,158,,28,62,033,13,30,45,161,27*79

$GPGLL,3250.45145,N,09646.24954,W,054428.00,A,A*72

$GPRMC,054429.00,A,3250.45158,N,09646.24960,W,0.299,,100215,,,A*64

$GPVTG,,T,,M,0.299,N,0.555,K,A*24

$GPGGA,054429.00,3250.45158,N,09646.24960,W,1,06,2.34,201.8,M,-25.2,M,,*6D

$GPGSA,A,3,11,01,30,17,28,07,,,,,,,3.71,2.34,2.88*09

$GPGSV,3,1,12,01,36,054,23,03,07,101,,04,10,039,,06,25,190,19*76

$GPGSV,3,2,12,07,15,154,14,11,19,046,26,13,22,257,,15,08,293,17*73

$GPGSV,3,3,12,17,69,295,26,20,02,158,,28,62,033,15,30,45,161,27*7E

$GPGLL,3250.45158,N,09646.24960,W,054429.00,A,A*78

$GPRMC,054430.00,A,3250.45173,N,09646.24971,W,0.354,,100215,,,A*65

$GPVTG,,T,,M,0.354,N,0.655,K,A*27

$GPGGA,054430.00,3250.45173,N,09646.24971,W,1,06,2.34,202.3,M,-25.2,M,,*64

$GPGSA,A,3,11,01,30,17,28,07,,,,,,,3.71,2.34,2.88*09

$GPGSV,3,1,12,01,36,054,23,03,07,101,,04,10,039,,06,25,190,20*7C

$GPGSV,3,2,12,07,15,154,14,11,19,046,26,13,22,257,,15,08,293,17*73

$GPGSV,3,3,12,17,69,295,26,20,02,158,,28,62,033,15,30,45,161,27*7E

$GPGLL,3250.45173,N,09646.24971,W,054430.00,A,A*79

$GPRMC,054431.00,A,3250.45189,N,09646.24969,W,0.430,,100215,,,A*6D

$GPVTG,,T,,M,0.430,N,0.796,K,A*2C

$GPGGA,054431.00,3250.45189,N,09646.24969,W,1,06,2.34,203.0,M,-25.2,M,,*6B

$GPGSA,A,3,11,01,30,17,28,07,,,,,,,3.71,2.34,2.88*09

$GPGSV,3,1,12,01,36,054,23,03,07,101,,04,10,039,18,06,25,190,20*75

$GPGSV,3,2,12,07,15,154,14,11,19,046,25,13,22,257,,15,08,293,17*70

$GPGSV,3,3,12,17,69,295,26,20,02,158,,28,62,033,15,30,45,161,27*7E

$GPGLL,3250.45189,N,09646.24969,W,054431.00,A,A*74

$GPRMC,054432.00,A,3250.45197,N,09646.24963,W,0.433,,100215,,,A*68

$GPVTG,,T,,M,0.433,N,0.802,K,A*2D

$GPGGA,054432.00,3250.45197,N,09646.24963,W,1,06,2.34,203.6,M,-25.2,M,,*6B

$GPGSA,A,3,11,01,30,17,28,07,,,,,,,3.71,2.34,2.88*09

$GPGSV,3,1,12,01,36,054,23,03,07,101,,04,10,039,15,06,25,190,20*78

$GPGSV,3,2,12,07,15,154,14,11,19,046,25,13,22,257,,15,08,293,17*70

$GPGSV,3,3,12,17,69,295,26,20,02,158,,28,62,033,13,30,45,161,26*79

$GPGLL,3250.45197,N,09646.24963,W,054432.00,A,A*72

$GPRMC,054433.00,A,3250.45192,N,09646.24962,W,0.238,,100215,,,A*60

$GPVTG,,T,,M,0.238,N,0.442,K,A*28

$GPGGA,054433.00,3250.45192,N,09646.24962,W,1,06,2.34,203.9,M,-25.2,M,,*61

$GPGSA,A,3,11,01,30,17,28,07,,,,,,,3.71,2.34,2.88*09

$GPGSV,3,1,12,01,36,054,23,03,07,101,,04,10,039,14,06,25,190,20*79

$GPGSV,3,2,12,07,15,154,14,11,19,046,25,13,22,257,,15,08,293,17*70

$GPGSV,3,3,12,17,69,295,26,20,02,158,,28,62,033,14,30,45,161,27*7F

$GPGLL,3250.45192,N,09646.24962,W,054433.00,A,A*77

$GPRMC,054434.00,A,3250.45189,N,09646.24945,W,0.063,,100215,,,A*64

$GPVTG,,T,,M,0.063,N,0.117,K,A*21

$GPGGA,054434.00,3250.45189,N,09646.24945,W,1,06,2.34,204.4,M,-25.2,M,,*63

$GPGSA,A,3,11,01,30,17,28,07,,,,,,,3.71,2.34,2.88*09

$GPGSV,3,1,12,01,36,054,23,03,07,101,,04,10,039,06,06,25,190,20*7A

$GPGSV,3,2,12,07,15,154,12,11,19,046,25,13,22,257,,15,08,293,17*76

$GPGSV,3,3,12,17,69,295,26,20,02,158,,28,62,033,14,30,45,161,26*7E

$GPGLL,3250.45189,N,09646.24945,W,054434.00,A,A*7F

$GPRMC,054435.00,A,3250.45179,N,09646.24944,W,0.118,,100215,,,A*66

$GPGSV,3,2,12,07,15,154,09,11,19,046,25,13,22,257,,15,08,293,17*7C

$GPGSV,3,3,12,17,69,295,26,20,02,158,,28,62,033,17,30,45,161,27*7C

$GPGLL,3250.45066,N,09646.24944,W,054419.00,A,A*71

$GPRMC,054420.00,A,3250.45086,N,09646.24980,W,0.542,,100215,,,A*60

$GPVTG,,T,,M,0.542,N,1.003,K,A*22

$GPGGA,054420.00,3250.45086,N,09646.24980,W,1,06,2.34,199.7,M,-25.2,M,,*65

$GPGSA,A,3,11,01,30,17,28,07,,,,,,,3.71,2.34,2.89*08

$GPGSV,3,1,12,01,36,054,20,03,07,101,,04,10,039,,06,25,190,18*74

$GPGSV,3,2,12,07,15,154,09,11,19,046,25,13,22,257,,15,08,293,17*7C

$GPGSV,3,3,12,17,69,295,26,20,02,158,,28,62,033,17,30,45,161,27*7C

$GPGLL,3250.45086,N,09646.24980,W,054420.00,A,A*7D

$GPRMC,054421.00,A,3250.45099,N,09646.24984,W,0.430,,100215,,,A*6F

$GPVTG,,T,,M,0.430,N,0.796,K,A*2C

$GPGGA,054421.00,3250.45099,N,09646.24984,W,1,06,2.34,200.0,M,-25.2,M,,*6A

$GPGSA,A,3,11,01,30,17,28,07,,,,,,,3.71,2.34,2.88*09

$GPGSV,3,1,12,01,36,054,20,03,07,101,,04,10,039,,06,25,190,19*75

$GPGSV,3,2,12,07,15,154,09,11,19,046,25,13,22,257,,15,08,293,17*7C

$GPGSV,3,3,12,17,69,295,26,20,02,158,,28,62,033,17,30,45,161,27*7C

$GPGLL,3250.45099,N,09646.24984,W,054421.00,A,A*76

$GPRMC,054422.00,A,3250.45104,N,09646.24984,W,0.357,,100215,,,A*6F

$GPVTG,,T,,M,0.357,N,0.661,K,A*23

$GPGGA,054422.00,3250.45104,N,09646.24984,W,1,06,2.34,200.2,M,-25.2,M,,*6E

$GPGSA,A,3,11,01,30,17,28,07,,,,,,,3.71,2.34,2.88*09

$GPGSV,3,1,12,01,36,054,20,03,07,101,,04,10,039,,06,25,190,20*7F

$GPGSV,3,2,12,07,15,154,09,11,19,046,25,13,22,257,,15,08,293,17*7C

$GPGSV,3,3,12,17,69,295,26,20,02,158,,28,62,033,16,30,45,161,27*7D

$GPGLL,3250.45104,N,09646.24984,W,054422.00,A,A*70

$GPRMC,054423.00,A,3250.45106,N,09646.24989,W,0.328,,100215,,,A*69

$GPVTG,,T,,M,0.328,N,0.608,K,A*24

$GPGGA,054423.00,3250.45106,N,09646.24989,W,1,06,2.34,200.3,M,-25.2,M,,*61

$GPGSA,A,3,11,01,30,17,28,07,,,,,,,3.71,2.34,2.88*09

$GPGSV,3,1,12,01,36,054,21,03,07,101,,04,10,039,,06,25,190,19*74

$GPGSV,3,2,12,07,15,154,09,11,19,046,25,13,22,257,,15,08,293,15*7E

$GPGSV,3,3,12,17,69,295,26,20,02,158,,28,62,033,16,30,45,161,27*7D

$GPGLL,3250.45106,N,09646.24989,W,054423.00,A,A*7E

$GPRMC,054424.00,A,3250.45106,N,09646.24987,W,0.302,,100215,,,A*68

$GPVTG,,T,,M,0.302,N,0.559,K,A*2B

$GPGGA,054424.00,3250.45106,N,09646.24987,W,1,06,2.34,200.5,M,-25.2,M,,*6E

$GPGSA,A,3,11,01,30,17,28,07,,,,,,,3.71,2.34,2.88*09

$GPGSV,3,1,12,01,36,054,20,03,07,101,,04,10,039,,06,25,190,19*75

$GPGSV,3,2,12,07,15,154,09,11,19,046,25,13,22,257,,15,08,293,15*7E

$GPGSV,3,3,12,17,69,295,26,20,02,158,,28,62,033,15,30,45,161,26*7F

$GPGLL,3250.45106,N,09646.24987,W,054424.00,A,A*77

$GPRMC,054425.00,A,3250.45116,N,09646.24980,W,0.207,,100215,,,A*6B

$GPVTG,,T,,M,0.207,N,0.384,K,A*29

$GPGGA,054425.00,3250.45116,N,09646.24980,W,1,06,2.34,200.7,M,-25.2,M,,*6B

$GPGSA,A,3,11,01,30,17,28,07,,,,,,,3.71,2.34,2.88*09

$GPGSV,3,1,12,01,36,054,20,03,07,101,,04,10,039,,06,25,190,19*75

$GPGSV,3,2,12,07,15,154,09,11,19,046,25,13,22,257,,15,08,293,16*7D

$GPGSV,3,3,12,17,69,295,26,20,02,158,,28,62,033,15,30,45,161,27*7E

$GPGLL,3250.45116,N,09646.24980,W,054425.00,A,A*70

$GPRMC,054426.00,A,3250.45125,N,09646.24958,W,0.199,,100215,,,A*69

$GPVTG,,T,,M,0.199,N,0.368,K,A*2F

$GPGGA,054426.00,3250.45125,N,09646.24958,W,1,06,2.34,201.0,M,-25.2,M,,*6B

$GPGSA,A,3,11,01,30,17,28,07,,,,,,,3.71,2.34,2.88*09

$GPGSV,3,1,12,01,36,054,21,03,07,101,,04,10,039,,06,25,190,19*74

$GPGSV,3,2,12,07,15,154,09,11,19,046,25,13,22,257,,15,08,293,17*7C

$GPGSV,3,3,12,17,69,295,26,20,02,158,,28,62,033,11,30,45,161,27*7A

$GPGLL,3250.45125,N,09646.24958,W,054426.00,A,A*76

$GPRMC,054427.00,A,3250.45132,N,09646.24964,W,0.247,,100215,,,A*61

$GPVTG,,T,,M,0.247,N,0.458,K,A*2B

$GPGGA,054427.00,3250.45132,N,09646.24964,W,1,06,2.34,201.2,M,-25.2,M,,*61

$GPGSA,A,3,11,01,30,17,28,07,,,,,,,3.71,2.34,2.88*09

$GPGSV,3,1,12,01,36,054,22,03,07,101,,04,10,039,,06,25,190,19*77

$GPGSV,3,2,12,07,15,154,09,11,19,046,25,13,22,257,,15,08,293,17*7C

$GPGSV,3,3,12,17,69,295,27,20,02,158,,28,62,033,11,30,45,161,27*7B

$GPGLL,3250.45132,N,09646.24964,W,054427.00,A,A*7E

$GPRMC,054428.00,A,3250.45145,N,09646.24954,W,0.268,,100215,,,A*60

$GPVTG,,T,,M,0.268,N,0.496,K,A*24

$GPGGA,054428.00,3250.45145,N,09646.24954,W,1,06,2.34,201.4,M,-25.2,M,,*6B

$GPGSA,A,3,11,01,30,17,28,07,,,,,,,3.71,2.34,2.88*09

$GPGSV,3,1,12,01,36,054,23,03,07,101,,04,10,039,,06,25,190,19*76

$GPGSV,3,2,12,07,15,154,14,11,19,046,26,13,22,257,,15,08,293,17*73

$GPGSV,3,3,12,17,69,295,27,20,02,158,,28,62,033,13,30,45,161,27*79

$GPGLL,3250.45145,N,09646.24954,W,054428.00,A,A*72

$GPRMC,054429.00,A,3250.45158,N,09646.24960,W,0.299,,100215,,,A*64

$GPVTG,,T,,M,0.299,N,0.555,K,A*24

$GPGGA,054429.00,3250.45158,N,09646.24960,W,1,06,2.34,201.8,M,-25.2,M,,*6D

$GPGSA,A,3,11,01,30,17,28,07,,,,,,,3.71,2.34,2.88*09

$GPGSV,3,1,12,01,36,054,23,0,307,101,,04,10,039,,06,25,190,19*76

$GPGSV,3,2,12,07,15,154,14,11,19,046,26,13,22,257,,15,08,293,17*73

$GPGSV,3,3,12,17,69,295,26,20,02,158,,28,62,033,15,30,45,161,27*7E

$GPGLL,3250.45158,N,09646.24960,W,054429.00,A,A*78

$GPRMC,054430.00,A,3250.45173,N,09646.24971,W,0.354,,100215,,,A*65

$GPVTG,,T,,M,0.354,N,0.655,K,A*27

$GPGGA,054430.00,3250.45173,N,09646.24971,W,1,06,2.34,202.3,M,-25.2,M,,*64

$GPGSA,A,3,11,01,30,17,28,07,,,,,,,3.71,2.34,2.88*09

$GPGSV,3,1,12,01,36,054,23,03,07,101,,04,10,039,,06,25,190,20*7C

$GPGSV,3,2,12,07,15,154,14,11,19,046,26,13,22,257,,15,08,293,17*73

$GPGSV,3,3,12,17,69,295,26,20,02,158,,28,62,033,15,30,45,161,27*7E

$GPGLL,3250.45173,N,09646.24971,W,054430.00,A,A*79

$GPRMC,054431.00,A,3250.45189,N,09646.24969,W,0.430,,100215,,,A*6D

$GPVTG,,T,,M,0.430,N,0.796,K,A*2C

$GPGGA,054431.00,3250.45189,N,09646.24969,W,1,06,2.34,203.0,M,-25.2,M,,*6B

$GPGSA,A,3,11,01,30,17,28,07,,,,,,,3.71,2.34,2.88*09

$GPGSV,3,1,12,01,36,054,23,03,07,101,,04,10,039,18,06,25,190,20*75

$GPGSV,3,2,12,07,15,154,14,11,19,046,25,13,22,257,,15,08,293,17*70

$GPGSV,3,3,12,17,69,295,26,20,02,158,,28,62,033,15,30,45,161,27*7E

$GPGLL,3250.45189,N,09646.24969,W,054431.00,A,A*74

$GPRMC,054432.00,A,3250.45197,N,09646.24963,W,0.433,,100215,,,A*68

$GPVTG,,T,,M,0.433,N,0.802,K,A*2D

$GPGGA,054432.00,3250.45197,N,09646.24963,W,1,06,2.34,203.6,M,-25.2,M,,*6B

$GPGSA,A,3,11,01,30,17,28,07,,,,,,,3.71,2.34,2.88*09

$GPGSV,3,1,12,01,36,054,23,03,07,101,,04,10,039,15,06,25,190,20*78

$GPGSV,3,2,12,07,15,154,14,11,19,046,25,13,22,257,,15,08,293,17*70

$GPGSV,3,3,12,17,69,295,26,20,02,158,,28,62,033,13,30,45,161,26*79

$GPGLL,3250.45197,N,09646.24963,W,054432.00,A,A*72

$GPRMC,054433.00,A,3250.45192,N,09646.24962,W,0.238,,100215,,,A*60

$GPVTG,,T,,M,0.238,N,0.442,K,A*28

$GPGGA,054433.00,3250.45192,N,09646.24962,W,1,06,2.34,203.9,M,-25.2,M,,*61

$GPGSA,A,3,11,01,30,17,28,07,,,,,,,3.71,2.34,2.88*09

$GPGSV,3,1,12,01,36,054,23,03,07,101,,04,10,039,14,06,25,190,20*79

$GPGSV,3,2,12,07,15,154,14,11,19,046,25,13,22,257,,15,08,293,17*70

$GPGSV,3,3,12,17,69,295,26,20,02,158,,28,62,033,14,30,45,161,27*7F

$GPGLL,3250.45192,N,09646.24962,W,054433.00,A,A*77

$GPRMC,054434.00,A,3250.45189,N,09646.24945,W,0.063,,100215,,,A*64

$GPVTG,,T,,M,0.063,N,0.117,K,A*21

$GPGGA,054434.00,3250.45189,N,09646.24945,W,1,06,2.34,204.4,M,-25.2,M,,*63

$GPGSA,A,3,11,01,30,17,28,07,,,,,,,3.71,2.34,2.88*09

$GPGSV,3,1,12,01,36,054,23,03,07,101,,04,10,039,06,06,25,190,20*7A

$GPGSV,3,2,12,07,15,154,12,11,19,046,25,13,22,257,,15,08,293,17*76

$GPGSV,3,3,12,17,69,295,26,20,02,158,,28,62,033,14,30,45,161,26*7E

$GPGLL,3250.45189,N,09646.24945,W,054434.00,A,A*7F

$GPRMC,054435.00,A,3250.45179,N,09646.24944,W,0.118,,100215,,,A*66

